[{"uid":5445521,"name":"Centrum","num":"6362","city":"Piaseczno","lat":52.072829,"lng":21.027054},{"uid":25315332,"name":"Górki Szymona","num":"6365","city":"Piaseczno","lat":52.051776,"lng":21.02435},{"uid":5445524,"name":"Józefosław","num":"6363","city":"Piaseczno","lat":52.09932,"lng":21.052146},{"uid":33275893,"name":"Kamionka","num":"6366","city":"Piaseczno","lat":52.056136,"lng":20.983193},{"uid":5445517,"name":"PKP Piaseczno","num":"6361","city":"Piaseczno","lat":52.066818,"lng":21.017962},{"uid":10477200,"name":"Stadion","num":"6364","city":"Piaseczno","lat":52.062009,"lng":21.034699},{"uid":34660997,"name":"Słowicza","num":"6360","city":"Piaseczno","lat":52.076118,"lng":21.012316},{"uid":172295958,"name":"1 Sierpnia – DK Włochy","num":"9709","city":"Warszawa","lat":52.194609,"lng":20.967765},{"uid":2585972,"name":"11 Listopada - Ratuszowa","num":"9658","city":"Warszawa","lat":52.261449,"lng":21.037614},{"uid":2585975,"name":"11 listopada - Inżynierska","num":"9660","city":"Warszawa","lat":52.258547,"lng":21.035176},{"uid":2586037,"name":"Afrykańska - Egipska","num":"9693","city":"Warszawa","lat":52.225197,"lng":21.071289},{"uid":276785706,"name":"Al.KEN – Płaskowickiej","num":"9714","city":"Warszawa","lat":52.14447,"lng":21.052094},{"uid":390869127,"name":"Aleja Wilanowska - Sobieskiego","num":"9715","city":"Warszawa","lat":52.170234,"lng":21.068462},{"uid":2585369,"name":"Andersa - Długa","num":"9463","city":"Warszawa","lat":52.244973,"lng":21.001274},{"uid":2585326,"name":"Andersa - Muranowska","num":"9437","city":"Warszawa","lat":52.25416,"lng":20.998085},{"uid":2585337,"name":"Anielewicza - Zamenhofa","num":"9444","city":"Warszawa","lat":52.249052,"lng":20.994892},{"uid":2681601,"name":"Arkadia","num":"6401","city":"Warszawa","lat":52.25574,"lng":20.984343},{"uid":2585906,"name":"Belgradzka - Rosoła","num":"9618","city":"Warszawa","lat":52.142018,"lng":21.066076},{"uid":2585467,"name":"Belwederska - Gagarina","num":"9516","city":"Warszawa","lat":52.207179,"lng":21.031355},{"uid":2585922,"name":"Białołęka - Ratusz","num":"9627","city":"Warszawa","lat":52.321127,"lng":20.971296},{"uid":2585764,"name":"Biblioteka Narodowa","num":"9552","city":"Warszawa","lat":52.212671,"lng":21.003437},{"uid":2585273,"name":"Bielany-Ratusz","num":"9409","city":"Warszawa","lat":52.276838,"lng":20.948216},{"uid":2681611,"name":"Blue City","num":"6404","city":"Warszawa","lat":52.213254,"lng":20.954946},{"uid":2585340,"name":"Bonifraterska - Franciszkańska","num":"9446","city":"Warszawa","lat":52.251549,"lng":21.002749},{"uid":2585344,"name":"Bora-Komorowskiego - Fieldorfa 'Nila'","num":"9449","city":"Warszawa","lat":52.22533,"lng":21.09229},{"uid":2586039,"name":"Bora-Komorowskiego - Umińskiego","num":"9694","city":"Warszawa","lat":52.223495,"lng":21.10133},{"uid":2585856,"name":"Branickiego - Rzeczypospolitej","num":"9597","city":"Warszawa","lat":52.156896,"lng":21.076109},{"uid":2585288,"name":"Broniewskiego - Krasińskiego","num":"9418","city":"Warszawa","lat":52.264398,"lng":20.972318},{"uid":2585283,"name":"Broniewskiego - Perzyńskiego","num":"9414","city":"Warszawa","lat":52.270634,"lng":20.950477},{"uid":2585286,"name":"Broniewskiego - Włościańska","num":"9417","city":"Warszawa","lat":52.266786,"lng":20.963697},{"uid":2586030,"name":"Brukselska - PROM","num":"9689","city":"Warszawa","lat":52.22585,"lng":21.060062},{"uid":2585953,"name":"Bukowiecka - Zamkowa","num":"9646","city":"Warszawa","lat":52.27347,"lng":21.07698},{"uid":4215025,"name":"Bulwar - most Śląsko - Dąbrowski","num":"9569","city":"Warszawa","lat":52.247972,"lng":21.019663},{"uid":2585328,"name":"Bysławska","num":"9439","city":"Warszawa","lat":52.159742,"lng":21.205322},{"uid":2585431,"name":"Centrum Nauki Kopernik","num":"9497","city":"Warszawa","lat":52.241266,"lng":21.028187},{"uid":2585338,"name":"Centrum Zdrowia Dziecka","num":"9445","city":"Warszawa","lat":52.207438,"lng":21.191126},{"uid":172295624,"name":"Chrościckiego – al. 4 Czerwca 1989 r.","num":"9708","city":"Warszawa","lat":52.209302,"lng":20.893987},{"uid":2585893,"name":"Ciszewskiego - Pileckiego","num":"9610","city":"Warszawa","lat":52.149506,"lng":21.033253},{"uid":533572913,"name":"City Point Targówek","num":"6415","city":"Warszawa","lat":52.261518,"lng":21.08448},{"uid":2585791,"name":"Czerniakowska - Gagarina","num":"9567","city":"Warszawa","lat":52.207728,"lng":21.047833},{"uid":2585804,"name":"Czerniakowska - ZUS","num":"9573","city":"Warszawa","lat":52.199845,"lng":21.05095},{"uid":2585704,"name":"Czerniakowska- Szwoleżerów","num":"9528","city":"Warszawa","lat":52.215851,"lng":21.046341},{"uid":2585349,"name":"Czerwonych Beretów - Frontowa","num":"9452","city":"Warszawa","lat":52.262273,"lng":21.177609},{"uid":2585958,"name":"Darwina - Nusbauma-Hilarowicza","num":"9650","city":"Warszawa","lat":52.26421,"lng":21.02618},{"uid":2585902,"name":"Dereniowa - Płaskowickiej","num":"9615","city":"Warszawa","lat":52.142735,"lng":21.044813},{"uid":2585771,"name":"Dickensa - Geodetów","num":"9555","city":"Warszawa","lat":52.206101,"lng":20.97033},{"uid":172293631,"name":"Dolina Służewiecka - Nowoursynowska","num":"9704","city":"Warszawa","lat":52.17034,"lng":21.041258},{"uid":535013898,"name":"Drewny - Korbońskiego","num":"9723","city":"Warszawa","lat":52.131222,"lng":21.098231},{"uid":2585750,"name":"Dw. Wschodni – Lubelska","num":"9550","city":"Warszawa","lat":52.25061,"lng":21.05336},{"uid":2586011,"name":"Dwernickiego - Siennicka","num":"9679","city":"Warszawa","lat":52.2504,"lng":21.077598},{"uid":2586000,"name":"Dworzec Wschodni - Kijowska","num":"9674","city":"Warszawa","lat":52.252745,"lng":21.051033},{"uid":2585368,"name":"Dworzec Zachodni","num":"9462","city":"Warszawa","lat":52.217954,"lng":20.966967},{"uid":2585352,"name":"Dzielna - Bellottiego","num":"9454","city":"Warszawa","lat":52.242888,"lng":20.980379},{"uid":507751479,"name":"EkoPark - Warszawska","num":"9718","city":"Warszawa","lat":52.200323,"lng":20.874611},{"uid":2585470,"name":"Emilii Plater - Wspólna","num":"9518","city":"Warszawa","lat":52.225892,"lng":21.006761},{"uid":2585438,"name":"Emilii Plater - Złota","num":"9501","city":"Warszawa","lat":52.230978,"lng":21.003676},{"uid":2585469,"name":"Emilii Plater - al. Jerozolimskie","num":"9517","city":"Warszawa","lat":52.229046,"lng":21.005454},{"uid":2585412,"name":"Emilii Plater - Świętokrzyska","num":"9486","city":"Warszawa","lat":52.23373,"lng":21.002811},{"uid":2585794,"name":"Etiudy Rewolucyjnej - Miączyńska","num":"9568","city":"Warszawa","lat":52.193813,"lng":20.991443},{"uid":2681618,"name":"Eurocentrum","num":"6407","city":"Warszawa","lat":52.220709,"lng":20.972267},{"uid":3616030,"name":"Factory Annopol","num":"6426","city":"Warszawa","lat":52.298441,"lng":21.024163},{"uid":2586042,"name":"Fieldorfa - Bukowskiego","num":"9695","city":"Warszawa","lat":52.229435,"lng":21.094524},{"uid":2585981,"name":"Floriańska - Park Praski","num":"9662","city":"Warszawa","lat":52.252425,"lng":21.030388},{"uid":2586022,"name":"Francuska - Walecznych","num":"9685","city":"Warszawa","lat":52.234745,"lng":21.053651},{"uid":507751401,"name":"Giserska - Habicha","num":"9717","city":"Warszawa","lat":52.202161,"lng":20.883169},{"uid":2585385,"name":"Gościniec","num":"9472","city":"Warszawa","lat":52.222881,"lng":21.223207},{"uid":2586005,"name":"Grochowska - Mińska","num":"9677","city":"Warszawa","lat":52.247136,"lng":21.056658},{"uid":2585921,"name":"Grupy AK Krybar","num":"9626","city":"Warszawa","lat":52.208763,"lng":21.066342},{"uid":2585749,"name":"Grójecka - Bitwy Warszawskiej 1920 roku","num":"9549","city":"Warszawa","lat":52.212891,"lng":20.977878},{"uid":2585781,"name":"Grójecka - PKP Rakowiec","num":"9560","city":"Warszawa","lat":52.198639,"lng":20.965252},{"uid":2585400,"name":"Górczewska - Płocka","num":"9479","city":"Warszawa","lat":52.23734,"lng":20.965578},{"uid":2585985,"name":"Jagiellońska - Okrzei","num":"9666","city":"Warszawa","lat":52.251577,"lng":21.035361},{"uid":2585963,"name":"Jagiellońska - Plac Hallera","num":"9653","city":"Warszawa","lat":52.259066,"lng":21.026144},{"uid":2585971,"name":"Jagiellońska - Ratuszowa","num":"9657","city":"Warszawa","lat":52.256355,"lng":21.029538},{"uid":2585381,"name":"Jana Kazimierza - Gizów","num":"9471","city":"Warszawa","lat":52.224946,"lng":20.945553},{"uid":2585360,"name":"Jana Olbrachta - Antka Rozpylacza","num":"9459","city":"Warszawa","lat":52.234223,"lng":20.934782},{"uid":2585876,"name":"Jastrzębowskiego - SGGW","num":"9605","city":"Warszawa","lat":52.162401,"lng":21.038381},{"uid":2585931,"name":"Kaliskiego - Kocjana","num":"9633","city":"Warszawa","lat":52.249465,"lng":20.897757},{"uid":2585394,"name":"Kasprzaka - Karolkowa","num":"9476","city":"Warszawa","lat":52.22898,"lng":20.97843},{"uid":2585391,"name":"Kasprzaka - Skierniewicka","num":"9475","city":"Warszawa","lat":52.228522,"lng":20.969639},{"uid":172295258,"name":"Kleszczowa – Krańcowa","num":"9707","city":"Warszawa","lat":52.196958,"lng":20.923586},{"uid":2585873,"name":"Kochanowskiego - Galla Anonima","num":"9603","city":"Warszawa","lat":52.269484,"lng":20.942087},{"uid":2585932,"name":"Kondratowicza - Chodecka","num":"9634","city":"Warszawa","lat":52.292359,"lng":21.040962},{"uid":2585934,"name":"Kondratowicza - Przy Grodzisku","num":"9635","city":"Warszawa","lat":52.292425,"lng":21.056741},{"uid":203610,"name":"Koneser","num":"6419","city":"Warszawa","lat":52.25602,"lng":21.046219},{"uid":2585712,"name":"Kopińska - Białobrzeska","num":"9531","city":"Warszawa","lat":52.217863,"lng":20.977596},{"uid":145175382,"name":"Korkowa","num":"9502","city":"Warszawa","lat":52.23828,"lng":21.147235},{"uid":2585342,"name":"Kościelna - Piesza","num":"9448","city":"Warszawa","lat":52.254116,"lng":21.009353},{"uid":2586268,"name":"Krakowskie Przedmieście - Traugutta","num":"9493","city":"Warszawa","lat":52.239374,"lng":21.016657},{"uid":2585378,"name":"Krakowskie Przedmieście - Trębacka","num":"9468","city":"Warszawa","lat":52.243578,"lng":21.01409},{"uid":2585492,"name":"Krucza - Wspólna","num":"9523","city":"Warszawa","lat":52.228266,"lng":21.017897},{"uid":2585699,"name":"Kruczkowskiego – PKP Powiśle","num":"9527","city":"Warszawa","lat":52.233971,"lng":21.029991},{"uid":2585817,"name":"Książąt Mazowieckich - Heroldów","num":"9579","city":"Warszawa","lat":52.302867,"lng":20.929504},{"uid":2585708,"name":"Książęca - Rozbrat","num":"9529","city":"Warszawa","lat":52.230087,"lng":21.030236},{"uid":172294162,"name":"Kłobucka – Jurajska","num":"9705","city":"Warszawa","lat":52.1637,"lng":20.992412},{"uid":2585919,"name":"Lazurowa - Sternicza","num":"9624","city":"Warszawa","lat":52.220789,"lng":20.897887},{"uid":2585351,"name":"Leszno - Młynarska","num":"9453","city":"Warszawa","lat":52.236881,"lng":20.972332},{"uid":2585462,"name":"Lindleya - szpital","num":"9513","city":"Warszawa","lat":52.224054,"lng":20.997567},{"uid":2585430,"name":"Lipowa - Dobra","num":"9496","city":"Warszawa","lat":52.241841,"lng":21.024114},{"uid":2585788,"name":"Madalińskiego - Kazimierzowska","num":"9564","city":"Warszawa","lat":52.204264,"lng":21.014428},{"uid":2585379,"name":"Mariensztat","num":"9469","city":"Warszawa","lat":52.246561,"lng":21.017476},{"uid":2585473,"name":"Marszałkowska - Al. Jerozolimskie","num":"9520","city":"Warszawa","lat":52.229286,"lng":21.011579},{"uid":2585477,"name":"Marszałkowska - Hoża","num":"9522","city":"Warszawa","lat":52.226288,"lng":21.013571},{"uid":2585416,"name":"Marszałkowska - Królewska","num":"9488","city":"Warszawa","lat":52.238549,"lng":21.006889},{"uid":2585766,"name":"Marszałkowska - Litewska","num":"9553","city":"Warszawa","lat":52.21691,"lng":21.01997},{"uid":2585265,"name":"Marymoncka - Dewajtis","num":"9404","city":"Warszawa","lat":52.290173,"lng":20.95037},{"uid":3470029,"name":"Marymoncka - Podleśna","num":"9699","city":"Warszawa","lat":52.281039,"lng":20.958925},{"uid":2585446,"name":"Marymoncka - Przy Agorze","num":"9505","city":"Warszawa","lat":52.295106,"lng":20.944576},{"uid":8746360,"name":"Marynarska 12","num":"6444","city":"Warszawa","lat":52.181168,"lng":20.992578},{"uid":2585447,"name":"Marywilska - P&R Żerań","num":"9506","city":"Warszawa","lat":52.315244,"lng":21.000138},{"uid":2585442,"name":"Matejki - Wiejska","num":"9503","city":"Warszawa","lat":52.22492,"lng":21.026885},{"uid":2586045,"name":"Meissnera - Fieldorfa","num":"9697","city":"Warszawa","lat":52.222228,"lng":21.09076},{"uid":2585345,"name":"Metro Bemowo","num":"9450","city":"Warszawa","lat":52.239503,"lng":20.913805},{"uid":2585452,"name":"Metro Bródno","num":"9508","city":"Warszawa","lat":52.293889,"lng":21.027245},{"uid":2585472,"name":"Metro Centrum","num":"9519","city":"Warszawa","lat":52.229939,"lng":21.010973},{"uid":4393742,"name":"Metro Centrum Nauki Kopernik","num":"9700","city":"Warszawa","lat":52.239358,"lng":21.031136},{"uid":2585311,"name":"Metro Dworzec Gdański","num":"9430","city":"Warszawa","lat":52.257602,"lng":20.994498},{"uid":2585466,"name":"Metro Dworzec Wileński - Targowa","num":"9515","city":"Warszawa","lat":52.254419,"lng":21.035632},{"uid":2585897,"name":"Metro Imielin","num":"9612","city":"Warszawa","lat":52.149311,"lng":21.045336},{"uid":2585913,"name":"Metro Kabaty","num":"9621","city":"Warszawa","lat":52.131093,"lng":21.06548},{"uid":2585476,"name":"Metro Kondratowicza","num":"9521","city":"Warszawa","lat":52.291748,"lng":21.048282},{"uid":2585346,"name":"Metro Księcia Janusza","num":"9451","city":"Warszawa","lat":52.239541,"lng":20.942309},{"uid":2585284,"name":"Metro Marymont","num":"9415","city":"Warszawa","lat":52.27142,"lng":20.97271},{"uid":2585263,"name":"Metro Młociny","num":"9403","city":"Warszawa","lat":52.290974,"lng":20.929556},{"uid":2585905,"name":"Metro Natolin","num":"9617","city":"Warszawa","lat":52.140391,"lng":21.056819},{"uid":2585425,"name":"Metro Nowy Świat - Uniwersytet","num":"9494","city":"Warszawa","lat":52.236884,"lng":21.017543},{"uid":2585285,"name":"Metro Plac Wilsona","num":"9416","city":"Warszawa","lat":52.269299,"lng":20.98346},{"uid":2585799,"name":"Metro Racławicka","num":"9570","city":"Warszawa","lat":52.199416,"lng":21.012138},{"uid":2585398,"name":"Metro Rondo Daszyńskiego","num":"9478","city":"Warszawa","lat":52.229707,"lng":20.983223},{"uid":2586001,"name":"Metro Stadion Narodowy","num":"9675","city":"Warszawa","lat":52.247314,"lng":21.042731},{"uid":2585271,"name":"Metro Stare Bielany","num":"9407","city":"Warszawa","lat":52.281627,"lng":20.949887},{"uid":2585883,"name":"Metro Stokłosy","num":"9607","city":"Warszawa","lat":52.156867,"lng":21.03384},{"uid":2586031,"name":"Metro Szwedzka","num":"9690","city":"Warszawa","lat":52.263298,"lng":21.046161},{"uid":2585275,"name":"Metro Słodowiec","num":"9410","city":"Warszawa","lat":52.276157,"lng":20.961667},{"uid":2585850,"name":"Metro Służew","num":"9595","city":"Warszawa","lat":52.173313,"lng":21.025731},{"uid":2585947,"name":"Metro Targówek Mieszkaniowy","num":"9644","city":"Warszawa","lat":52.269795,"lng":21.051284},{"uid":2585942,"name":"Metro Trocka","num":"9641","city":"Warszawa","lat":52.275799,"lng":21.056083},{"uid":2585717,"name":"Metro Ulrychów","num":"9534","city":"Warszawa","lat":52.240163,"lng":20.931161},{"uid":2585875,"name":"Metro Ursynów","num":"9604","city":"Warszawa","lat":52.162258,"lng":21.028076},{"uid":2585267,"name":"Metro Wawrzyszew","num":"9405","city":"Warszawa","lat":52.285914,"lng":20.940561},{"uid":2585827,"name":"Metro Wierzbno","num":"9584","city":"Warszawa","lat":52.188957,"lng":21.017447},{"uid":2585838,"name":"Metro Wilanowska - Dworzec Południowy","num":"9589","city":"Warszawa","lat":52.18082,"lng":21.023577},{"uid":2585729,"name":"Metro Zacisze","num":"9541","city":"Warszawa","lat":52.283476,"lng":21.062266},{"uid":48372123,"name":"Miasteczko Orange","num":"6453","city":"Warszawa","lat":52.208525,"lng":20.946525},{"uid":2585377,"name":"Miodowa","num":"9467","city":"Warszawa","lat":52.246541,"lng":21.011265},{"uid":2586024,"name":"Międzynarodowa - Walecznych","num":"9686","city":"Warszawa","lat":52.236598,"lng":21.064774},{"uid":2585925,"name":"Modlińska - Żerańska","num":"9629","city":"Warszawa","lat":52.303198,"lng":20.989167},{"uid":2585737,"name":"Mokotowska - Piękna","num":"9544","city":"Warszawa","lat":52.223815,"lng":21.020786},{"uid":2585396,"name":"Muzeum Powstania Warszawskiego","num":"9477","city":"Warszawa","lat":52.233427,"lng":20.981703},{"uid":2585924,"name":"Myśliborska - al. Kuklińskiego","num":"9628","city":"Warszawa","lat":52.313298,"lng":20.965532},{"uid":2585747,"name":"Myśliwiecka - Rozbrat","num":"9547","city":"Warszawa","lat":52.222113,"lng":21.034387},{"uid":2585960,"name":"Namysłowska - Darwina","num":"9651","city":"Warszawa","lat":52.265499,"lng":21.031197},{"uid":448565,"name":"Nestle House","num":"6413","city":"Warszawa","lat":52.183992,"lng":21.00984},{"uid":2585722,"name":"Noakowskiego - Koszykowa","num":"9537","city":"Warszawa","lat":52.222683,"lng":21.00811},{"uid":2585790,"name":"OSiR Wawer","num":"9566","city":"Warszawa","lat":52.219474,"lng":21.162114},{"uid":2585278,"name":"OSiR Żoliborz","num":"9411","city":"Warszawa","lat":52.277729,"lng":20.985734},{"uid":2585315,"name":"Obozowa - Ciołka","num":"9432","city":"Warszawa","lat":52.246595,"lng":20.942922},{"uid":2585319,"name":"Obozowa - Radziwie","num":"9434","city":"Warszawa","lat":52.246037,"lng":20.962463},{"uid":2585429,"name":"Oboźna - Kopernika","num":"9495","city":"Warszawa","lat":52.23829,"lng":21.018423},{"uid":2585304,"name":"Obrońców Tobruku - Pieniążka","num":"9425","city":"Warszawa","lat":52.25759,"lng":20.932337},{"uid":2585455,"name":"Ochota-Ratusz","num":"9510","city":"Warszawa","lat":52.222216,"lng":20.986629},{"uid":2585330,"name":"Okopowa - Anielewicza","num":"9440","city":"Warszawa","lat":52.244114,"lng":20.977868},{"uid":2585364,"name":"Okopowa - Leszno","num":"9460","city":"Warszawa","lat":52.238349,"lng":20.978226},{"uid":2585911,"name":"Ordonówny - Światowida","num":"9620","city":"Warszawa","lat":52.332605,"lng":20.94184},{"uid":2585742,"name":"Orlich Gniazd","num":"9546","city":"Warszawa","lat":52.248845,"lng":20.920259},{"uid":2585978,"name":"Ostrobramska - Motorowa","num":"9661","city":"Warszawa","lat":52.235377,"lng":21.080967},{"uid":2586034,"name":"Ostrobramska - Zamieniecka","num":"9692","city":"Warszawa","lat":52.23483,"lng":21.09975},{"uid":544509678,"name":"Ostródzka- Hemara","num":"9725","city":"Warszawa","lat":52.326732,"lng":21.048469},{"uid":507751599,"name":"PKP Gołąbki","num":"9719","city":"Warszawa","lat":52.208074,"lng":20.86491},{"uid":44583449,"name":"PKP Międzylesie","num":"9587","city":"Warszawa","lat":52.205017,"lng":21.168801},{"uid":2585843,"name":"PKP Rembertów - Cyrulików","num":"9591","city":"Warszawa","lat":52.257579,"lng":21.157396},{"uid":2585853,"name":"PKP Rembertów - Marsa","num":"9596","city":"Warszawa","lat":52.256711,"lng":21.15805},{"uid":2585808,"name":"PKP Ursus","num":"9575","city":"Warszawa","lat":52.196047,"lng":20.884935},{"uid":2585807,"name":"PKP Ursus - Niedźwiadek","num":"9574","city":"Warszawa","lat":52.191624,"lng":20.869008},{"uid":2585871,"name":"PKP Ursus Północny","num":"9601","city":"Warszawa","lat":52.206211,"lng":20.887875},{"uid":2585880,"name":"PKP Wawer","num":"9606","city":"Warszawa","lat":52.223045,"lng":21.149132},{"uid":2585894,"name":"PKP Wesoła","num":"9611","city":"Warszawa","lat":52.253523,"lng":21.224155},{"uid":2585820,"name":"PKP Włochy","num":"9580","city":"Warszawa","lat":52.205644,"lng":20.915914},{"uid":14083322,"name":"PRAGA 306/PZO","num":"6445","city":"Warszawa","lat":52.247246,"lng":21.062545},{"uid":163208604,"name":"Paderewskiego - Czwartaków","num":"9703","city":"Warszawa","lat":52.271148,"lng":21.149855},{"uid":2585464,"name":"Park Kultury w Powsinie","num":"9514","city":"Warszawa","lat":52.11625,"lng":21.087655},{"uid":2585974,"name":"Park Kępa Potocka","num":"9659","city":"Warszawa","lat":52.28794,"lng":20.978694},{"uid":21122602,"name":"Park Rozwoju","num":"6450","city":"Warszawa","lat":52.186191,"lng":20.988205},{"uid":2585901,"name":"Pileckiego - Alternatywy","num":"9614","city":"Warszawa","lat":52.14272,"lng":21.038362},{"uid":2585370,"name":"Pl. Bankowy - Ratusz","num":"9464","city":"Warszawa","lat":52.243175,"lng":21.00177},{"uid":2585291,"name":"Plac Grunwaldzki","num":"9420","city":"Warszawa","lat":52.262405,"lng":20.980255},{"uid":2585413,"name":"Plac Grzybowski","num":"9487","city":"Warszawa","lat":52.235858,"lng":21.003731},{"uid":2585929,"name":"Plac Hallera - Dąbrowszczaków","num":"9632","city":"Warszawa","lat":52.261381,"lng":21.030544},{"uid":2585297,"name":"Plac Inwalidów","num":"9422","city":"Warszawa","lat":52.263922,"lng":20.989578},{"uid":2585735,"name":"Plac Konstytucji","num":"9543","city":"Warszawa","lat":52.222943,"lng":21.015821},{"uid":2585341,"name":"Plac Krasińskich","num":"9447","city":"Warszawa","lat":52.248862,"lng":21.005578},{"uid":2585420,"name":"Plac Małachowskiego","num":"9491","city":"Warszawa","lat":52.239662,"lng":21.011951},{"uid":2585738,"name":"Plac Na Rozdrożu","num":"9545","city":"Warszawa","lat":52.219962,"lng":21.02583},{"uid":2585714,"name":"Plac Narutowicza","num":"9532","city":"Warszawa","lat":52.217915,"lng":20.982816},{"uid":2585724,"name":"Plac Politechniki","num":"9538","city":"Warszawa","lat":52.219916,"lng":21.011682},{"uid":2585422,"name":"Plac Powstańców Warszawy","num":"9492","city":"Warszawa","lat":52.235973,"lng":21.012539},{"uid":2586026,"name":"Plac Szembeka","num":"9687","city":"Warszawa","lat":52.242685,"lng":21.102494},{"uid":2585694,"name":"Plac Trzech Krzyży","num":"9525","city":"Warszawa","lat":52.227849,"lng":21.023508},{"uid":2585779,"name":"Plac Unii Lubelskiej","num":"9559","city":"Warszawa","lat":52.213238,"lng":21.021057},{"uid":2585457,"name":"Plac Zawiszy","num":"9511","city":"Warszawa","lat":52.225335,"lng":20.989825},{"uid":2585731,"name":"Plac Zbawiciela","num":"9542","city":"Warszawa","lat":52.220223,"lng":21.0179},{"uid":7261966,"name":"Platan Park","num":"6441","city":"Warszawa","lat":52.1544,"lng":21.0064},{"uid":2585748,"name":"Port Czerniakowski","num":"9548","city":"Warszawa","lat":52.227685,"lng":21.044317},{"uid":2585358,"name":"Powstańców Śląskich - Człuchowska","num":"9458","city":"Warszawa","lat":52.22868,"lng":20.91509},{"uid":2585380,"name":"Powstańców Śląskich - Połczyńska","num":"9470","city":"Warszawa","lat":52.220591,"lng":20.917589},{"uid":2585313,"name":"Powstańców Śląskich - Radiowa","num":"9431","city":"Warszawa","lat":52.252626,"lng":20.913638},{"uid":44581598,"name":"Powstańców Śląskich - Wrocławska","num":"9642","city":"Warszawa","lat":52.257631,"lng":20.91931},{"uid":2585308,"name":"Powązkowska - Burakowska","num":"9429","city":"Warszawa","lat":52.253594,"lng":20.979874},{"uid":2585305,"name":"Powązkowska - Krasińskiego","num":"9426","city":"Warszawa","lat":52.259323,"lng":20.960551},{"uid":2585306,"name":"Powązkowska - Plac Niemena","num":"9427","city":"Warszawa","lat":52.256315,"lng":20.968231},{"uid":2585727,"name":"Poznańska - Zespół Szkół Gastronomicznych","num":"9539","city":"Warszawa","lat":52.223582,"lng":21.012871},{"uid":2586009,"name":"Praga-Południe-Ratusz","num":"9678","city":"Warszawa","lat":52.2464,"lng":21.06868},{"uid":14083304,"name":"Procter & Gamble","num":"6446","city":"Warszawa","lat":52.260904,"lng":21.072881},{"uid":2585307,"name":"Przasnyska - Rydygiera","num":"9428","city":"Warszawa","lat":52.258593,"lng":20.971005},{"uid":2585872,"name":"Przyczółkowa - Branickiego","num":"9602","city":"Warszawa","lat":52.159374,"lng":21.086449},{"uid":2585410,"name":"Ptasia - Zimna","num":"9485","city":"Warszawa","lat":52.239571,"lng":21.000301},{"uid":2585800,"name":"Puławska - Dolna","num":"9571","city":"Warszawa","lat":52.199505,"lng":21.024098},{"uid":2585789,"name":"Puławska - Dworkowa","num":"9565","city":"Warszawa","lat":52.205518,"lng":21.023103},{"uid":2585830,"name":"Puławska - Idzikowskiego","num":"9585","city":"Warszawa","lat":52.18648,"lng":21.02538},{"uid":172295073,"name":"Puławska - Kajakowa","num":"9706","city":"Warszawa","lat":52.129592,"lng":21.018367},{"uid":2585888,"name":"Puławska - Pileckiego","num":"9609","city":"Warszawa","lat":52.152355,"lng":21.018825},{"uid":276784802,"name":"Puławska – Karmazynowa","num":"9712","city":"Warszawa","lat":52.111877,"lng":21.01887},{"uid":276784510,"name":"Puławska – Pelikanów","num":"9711","city":"Warszawa","lat":52.12293,"lng":21.01854},{"uid":2585844,"name":"Pętla Bokserska","num":"9592","city":"Warszawa","lat":52.170182,"lng":20.99584},{"uid":2585928,"name":"Pętla Bródno - Podgrodzie","num":"9631","city":"Warszawa","lat":52.300027,"lng":21.042527},{"uid":2586028,"name":"Pętla Gocławek","num":"9688","city":"Warszawa","lat":52.237559,"lng":21.120087},{"uid":2585996,"name":"Pętla Kawęczyńska - Bazylika","num":"9672","city":"Warszawa","lat":52.258351,"lng":21.058534},{"uid":2585301,"name":"Pętla Nowe Bemowo","num":"9424","city":"Warszawa","lat":52.261003,"lng":20.923905},{"uid":2585373,"name":"Pętla Podskarbińska","num":"9466","city":"Warszawa","lat":52.254189,"lng":21.073601},{"uid":2585811,"name":"Pętla Sadyba","num":"9577","city":"Warszawa","lat":52.18155,"lng":21.068532},{"uid":2585299,"name":"Pętla Stare Bemowo","num":"9423","city":"Warszawa","lat":52.258245,"lng":20.898614},{"uid":2585839,"name":"Pętla Stegny","num":"9590","city":"Warszawa","lat":52.1779,"lng":21.0487},{"uid":2585770,"name":"Pętla Szczęśliwice","num":"9554","city":"Warszawa","lat":52.208386,"lng":20.96311},{"uid":2585825,"name":"Pętla Witolin","num":"9583","city":"Warszawa","lat":52.236522,"lng":21.113097},{"uid":2585954,"name":"Radzymińska - Piotra Skargi","num":"9647","city":"Warszawa","lat":52.266889,"lng":21.058568},{"uid":2585951,"name":"Radzymińska - Trocka","num":"9645","city":"Warszawa","lat":52.272602,"lng":21.06321},{"uid":2585994,"name":"Radzymińska - Wiosenna","num":"9670","city":"Warszawa","lat":52.255882,"lng":21.049793},{"uid":2585938,"name":"Radzymińska - Łodygowa","num":"9638","city":"Warszawa","lat":52.286662,"lng":21.07535},{"uid":2585995,"name":"Radzymińska - Łomżyńska","num":"9671","city":"Warszawa","lat":52.259519,"lng":21.052616},{"uid":2585774,"name":"Rakowiecka - Św. A. Boboli","num":"9557","city":"Warszawa","lat":52.205545,"lng":20.998805},{"uid":2585716,"name":"Raszyńska - Wawelska","num":"9533","city":"Warszawa","lat":52.216641,"lng":20.987948},{"uid":2585968,"name":"Ratuszowa - ZOO","num":"9656","city":"Warszawa","lat":52.253851,"lng":21.02328},{"uid":2586044,"name":"Rechniewskiego - Nowaka-Jeziorańskiego","num":"9696","city":"Warszawa","lat":52.22974,"lng":21.10624},{"uid":2585269,"name":"Redutowa - Pustola","num":"9406","city":"Warszawa","lat":52.233682,"lng":20.940959},{"uid":2585937,"name":"Rembielińska - Wyszogrodzka","num":"9637","city":"Warszawa","lat":52.288592,"lng":21.031009},{"uid":281045539,"name":"Rembrandta – Miedza","num":"9713","city":"Warszawa","lat":52.280625,"lng":21.049645},{"uid":2585941,"name":"Rondo Bułhaka","num":"9640","city":"Warszawa","lat":52.246276,"lng":21.223424},{"uid":2585982,"name":"Rondo Fieldorfa","num":"9663","city":"Warszawa","lat":52.264811,"lng":21.169537},{"uid":2585728,"name":"Rondo Jazdy Polskiej","num":"9540","city":"Warszawa","lat":52.217486,"lng":21.014295},{"uid":2585992,"name":"Rondo Mościckiego","num":"9669","city":"Warszawa","lat":52.23393,"lng":21.126986},{"uid":2585408,"name":"Rondo ONZ","num":"9484","city":"Warszawa","lat":52.232628,"lng":20.997123},{"uid":2585956,"name":"Rondo Starzyńskiego","num":"9649","city":"Warszawa","lat":52.263182,"lng":21.021278},{"uid":2586018,"name":"Rondo Waszyngtona - Stadion Narodowy","num":"9682","city":"Warszawa","lat":52.238733,"lng":21.050845},{"uid":2586021,"name":"Rondo Wiatraczna","num":"9684","city":"Warszawa","lat":52.244564,"lng":21.083806},{"uid":2585684,"name":"Rondo de Gaulle'a","num":"9524","city":"Warszawa","lat":52.23144,"lng":21.021304},{"uid":2585296,"name":"Rondo Śmigielskiego","num":"9421","city":"Warszawa","lat":52.247163,"lng":21.189258},{"uid":2585961,"name":"Rondo Żaba","num":"9652","city":"Warszawa","lat":52.269041,"lng":21.037949},{"uid":2585885,"name":"Rosoła - Ciszewskiego - SGGW","num":"9608","city":"Warszawa","lat":52.157289,"lng":21.044008},{"uid":2585899,"name":"Rosoła - Wesoła","num":"9613","city":"Warszawa","lat":52.152233,"lng":21.056392},{"uid":2585846,"name":"Rzymowskiego – Gotarda","num":"9593","city":"Warszawa","lat":52.17105,"lng":21.005914},{"uid":2585327,"name":"Sanguszki - Wybrzeże Gdańskie","num":"9438","city":"Warszawa","lat":52.255877,"lng":21.009982},{"uid":2585782,"name":"Sanocka - Pruszkowska","num":"9561","city":"Warszawa","lat":52.201765,"lng":20.98209},{"uid":2585371,"name":"Senatorska - Bielańska","num":"9465","city":"Warszawa","lat":52.243571,"lng":21.006692},{"uid":2585987,"name":"Sierakowskiego - Kłopotowskiego","num":"9667","city":"Warszawa","lat":52.250633,"lng":21.031117},{"uid":18751910,"name":"Signum Work Station","num":"6448","city":"Warszawa","lat":52.183037,"lng":20.991542},{"uid":2585917,"name":"Skarbka z Gór - Berensona","num":"9623","city":"Warszawa","lat":52.324196,"lng":21.056547},{"uid":2585814,"name":"Skoroszewska - Prystora","num":"9578","city":"Warszawa","lat":52.190638,"lng":20.899944},{"uid":2585334,"name":"Smocza - Anielewicza","num":"9442","city":"Warszawa","lat":52.246149,"lng":20.985462},{"uid":2585333,"name":"Smocza - Miła","num":"9441","city":"Warszawa","lat":52.248553,"lng":20.983458},{"uid":2585354,"name":"Smocza - Nowolipki","num":"9456","city":"Warszawa","lat":52.243545,"lng":20.987351},{"uid":2585695,"name":"Smolna - PKP Powiśle","num":"9526","city":"Warszawa","lat":52.23324,"lng":21.026118},{"uid":2585802,"name":"Sobieskiego - Chełmska","num":"9572","city":"Warszawa","lat":52.201936,"lng":21.036893},{"uid":2585835,"name":"Sobieskiego - Mangalia","num":"9586","city":"Warszawa","lat":52.188224,"lng":21.049931},{"uid":2585432,"name":"Sobieskiego - Nałęczowska","num":"9498","city":"Warszawa","lat":52.175294,"lng":21.063173},{"uid":544510267,"name":"Sobieskiego – Bonifacego","num":"9727","city":"Warszawa","lat":52.181743,"lng":21.056354},{"uid":544510014,"name":"Solec – Al. 3 Maja","num":"9726","city":"Warszawa","lat":52.234651,"lng":21.034109},{"uid":2585809,"name":"Sosnkowskiego - OSiR Ursus","num":"9576","city":"Warszawa","lat":52.186994,"lng":20.890648},{"uid":2586012,"name":"Stalowa - Czynszowa","num":"9680","city":"Warszawa","lat":52.260532,"lng":21.04172},{"uid":2586032,"name":"Stanów Zjednoczonych - Międzynarodowa","num":"9691","city":"Warszawa","lat":52.230115,"lng":21.067961},{"uid":2585323,"name":"Stawki - Dubois","num":"9436","city":"Warszawa","lat":52.253153,"lng":20.991552},{"uid":2585762,"name":"Stefana Banacha - UW","num":"9551","city":"Warszawa","lat":52.210772,"lng":20.984756},{"uid":2585904,"name":"Stryjeńskich - Belgradzka","num":"9616","city":"Warszawa","lat":52.137604,"lng":21.050553},{"uid":2585908,"name":"Stryjeńskich - Wąwozowa","num":"9619","city":"Warszawa","lat":52.131433,"lng":21.056156},{"uid":3110680,"name":"Szaserów – Garwolińska","num":"9698","city":"Warszawa","lat":52.249684,"lng":21.092105},{"uid":2585711,"name":"Szczęśliwicka - APS","num":"9530","city":"Warszawa","lat":52.217218,"lng":20.971361},{"uid":2585997,"name":"Targowa - Kijowska","num":"9673","city":"Warszawa","lat":52.249865,"lng":21.042911},{"uid":2585990,"name":"Targowa - Ząbkowska","num":"9668","city":"Warszawa","lat":52.252088,"lng":21.038137},{"uid":2681652,"name":"The Park Warsaw","num":"6420","city":"Warszawa","lat":52.189299,"lng":20.945091},{"uid":2585450,"name":"Topiel - Tamka","num":"9507","city":"Warszawa","lat":52.237594,"lng":21.025689},{"uid":2585259,"name":"UKSW","num":"9402","city":"Warszawa","lat":52.296226,"lng":20.958327},{"uid":28113055,"name":"Uniwersytet - SWPS","num":"6429","city":"Warszawa","lat":52.247531,"lng":21.066431},{"uid":492876492,"name":"Ursus Ratusz","num":"9716","city":"Warszawa","lat":52.200496,"lng":20.893806},{"uid":2585863,"name":"Vogla - Syta","num":"9599","city":"Warszawa","lat":52.16479,"lng":21.10925},{"uid":544509498,"name":"WKD Raków","num":"9724","city":"Warszawa","lat":52.194721,"lng":20.936542},{"uid":2681666,"name":"Warsaw Spire","num":"6423","city":"Warszawa","lat":52.232538,"lng":20.983233},{"uid":52488396,"name":"Warsaw UNIT","num":"6454","city":"Warszawa","lat":52.229887,"lng":20.98569},{"uid":507751678,"name":"Warszawska - Hermana","num":"9720","city":"Warszawa","lat":52.194985,"lng":20.862216},{"uid":2586019,"name":"Waszyngtona - Kinowa","num":"9683","city":"Warszawa","lat":52.242281,"lng":21.07116},{"uid":535013750,"name":"Wał Zawadowski - Zaściankowa","num":"9722","city":"Warszawa","lat":52.17096,"lng":21.122148},{"uid":2681621,"name":"Westfield Mokotów","num":"6409","city":"Warszawa","lat":52.178689,"lng":21.002814},{"uid":2585983,"name":"Wileńska - Rzeszotarskiej","num":"9664","city":"Warszawa","lat":52.257958,"lng":21.03998},{"uid":2681672,"name":"Wola Park","num":"6424","city":"Warszawa","lat":52.2414,"lng":20.929192},{"uid":2585353,"name":"Wolność - Bellottiego","num":"9455","city":"Warszawa","lat":52.24108,"lng":20.98316},{"uid":2585417,"name":"Wolska - Hubalczyków","num":"9489","city":"Warszawa","lat":52.223197,"lng":20.929879},{"uid":2585389,"name":"Wolska - Płocka","num":"9474","city":"Warszawa","lat":52.233341,"lng":20.965197},{"uid":3318614,"name":"Wolska - Redutowa","num":"9701","city":"Warszawa","lat":52.226543,"lng":20.941158},{"uid":2585787,"name":"Wołoska - Kulskiego","num":"9563","city":"Warszawa","lat":52.20177,"lng":20.99969},{"uid":4585378,"name":"Wołoska - Odyńca","num":"9401","city":"Warszawa","lat":52.195747,"lng":21.002554},{"uid":2585837,"name":"Wołoska - Woronicza","num":"9588","city":"Warszawa","lat":52.18937,"lng":21.00247},{"uid":2585289,"name":"Wybrzeże Gdyńskie - KS Spójnia","num":"9419","city":"Warszawa","lat":52.267875,"lng":21.002067},{"uid":2585955,"name":"Wybrzeże Helskie - ZOO","num":"9648","city":"Warszawa","lat":52.261437,"lng":21.015574},{"uid":2586014,"name":"Wybrzeże Szczecińskie - Stadion Narodowy","num":"9681","city":"Warszawa","lat":52.237208,"lng":21.043758},{"uid":2585939,"name":"Wysockiego - Matki Teresy z Kalkuty","num":"9639","city":"Warszawa","lat":52.281231,"lng":21.025853},{"uid":2585936,"name":"Wysockiego - Poborzańska","num":"9636","city":"Warszawa","lat":52.287807,"lng":21.021383},{"uid":44583483,"name":"Wólczyńska - Conrada","num":"9408","city":"Warszawa","lat":52.281063,"lng":20.923405},{"uid":2585916,"name":"Wąwozowa - Rosoła","num":"9622","city":"Warszawa","lat":52.133207,"lng":21.074828},{"uid":2585824,"name":"Włochy - Ratusz","num":"9582","city":"Warszawa","lat":52.192471,"lng":20.959666},{"uid":206401280,"name":"Włodarzewska - Maszynowa","num":"9710","city":"Warszawa","lat":52.202733,"lng":20.950999},{"uid":2585721,"name":"al. Armii Ludowej - al. Niepodległości","num":"9536","city":"Warszawa","lat":52.216751,"lng":21.004732},{"uid":2585335,"name":"al. Jana Pawła II - Anielewicza","num":"9443","city":"Warszawa","lat":52.247017,"lng":20.989516},{"uid":2585406,"name":"al. Jana Pawła II - Grzybowska","num":"9483","city":"Warszawa","lat":52.235706,"lng":20.996703},{"uid":2585356,"name":"al. Jana Pawła II - Nowolipki","num":"9457","city":"Warszawa","lat":52.244577,"lng":20.99177},{"uid":2585405,"name":"al. Jana Pawła II - Plac Mirowski","num":"9482","city":"Warszawa","lat":52.238024,"lng":20.995973},{"uid":2585321,"name":"al. Jana Pawła II - Stawki","num":"9435","city":"Warszawa","lat":52.251471,"lng":20.985705},{"uid":2585435,"name":"al. Jana Pawła II - Złota","num":"9500","city":"Warszawa","lat":52.230194,"lng":20.999486},{"uid":2585367,"name":"al. Jana Pawła II - al. Solidarności","num":"9461","city":"Warszawa","lat":52.242178,"lng":20.993004},{"uid":2585445,"name":"al. Jerozolimskie - Krucza","num":"9504","city":"Warszawa","lat":52.231056,"lng":21.016738},{"uid":2585460,"name":"al. Jerozolimskie - Lindleya","num":"9512","city":"Warszawa","lat":52.22622,"lng":20.996172},{"uid":2585453,"name":"al. Jerozolimskie - Niemcewicza","num":"9509","city":"Warszawa","lat":52.22206,"lng":20.979201},{"uid":2585821,"name":"al. Jerozolimskie - Popularna","num":"9581","city":"Warszawa","lat":52.20115,"lng":20.935342},{"uid":2585280,"name":"al. Komandosów","num":"9412","city":"Warszawa","lat":52.253001,"lng":21.168017},{"uid":2585848,"name":"al. Lotników - Modzelewskiego","num":"9594","city":"Warszawa","lat":52.174435,"lng":21.012881},{"uid":2585776,"name":"al. Niepodległości - Batorego","num":"9558","city":"Warszawa","lat":52.210833,"lng":21.007851},{"uid":2585720,"name":"al. Niepodległości - Nowowiejska","num":"9535","city":"Warszawa","lat":52.220676,"lng":21.004555},{"uid":2585387,"name":"al. Prymasa Tysiąclecia - Górczewska","num":"9473","city":"Warszawa","lat":52.237662,"lng":20.955493},{"uid":2585317,"name":"al. Prymasa Tysiąclecia - Kasprzaka","num":"9433","city":"Warszawa","lat":52.227451,"lng":20.956839},{"uid":2585984,"name":"al. Prymasa Tysiąclecia - Obozowa","num":"9665","city":"Warszawa","lat":52.247585,"lng":20.9568},{"uid":2585281,"name":"al. Reymonta - Conrada","num":"9413","city":"Warszawa","lat":52.270941,"lng":20.932627},{"uid":2585868,"name":"al. Rzeczypospolitej - Klimczaka","num":"9600","city":"Warszawa","lat":52.160626,"lng":21.072325},{"uid":535013644,"name":"al. Rzeczypospolitej - Oś Królewska","num":"9721","city":"Warszawa","lat":52.16453,"lng":21.07056},{"uid":2585860,"name":"al. Wilanowska - Przyczółkowa","num":"9598","city":"Warszawa","lat":52.165588,"lng":21.083933},{"uid":2586003,"name":"al. Zieleniecka - Teatr Powszechny","num":"9676","city":"Warszawa","lat":52.247231,"lng":21.047646},{"uid":2585945,"name":"Św. Wincentego – Kołowa","num":"9643","city":"Warszawa","lat":52.273679,"lng":21.043095},{"uid":2585920,"name":"Światowida - Mehoffera","num":"9625","city":"Warszawa","lat":52.322698,"lng":20.944811},{"uid":2585926,"name":"Świderska - Świętosławskiego","num":"9630","city":"Warszawa","lat":52.316765,"lng":20.95171},{"uid":2585401,"name":"Żelazna - Chłodna","num":"9480","city":"Warszawa","lat":52.237314,"lng":20.988849},{"uid":2585402,"name":"Żelazna - Prosta","num":"9481","city":"Warszawa","lat":52.232386,"lng":20.992293},{"uid":2585433,"name":"Żelazna - Sienna","num":"9499","city":"Warszawa","lat":52.22983,"lng":20.993996},{"uid":2585772,"name":"Żwirki i Wigury - Księcia Trojdena","num":"9556","city":"Warszawa","lat":52.205197,"lng":20.985098},{"uid":2585785,"name":"Żwirki i Wigury - Racławicka","num":"9562","city":"Warszawa","lat":52.198137,"lng":20.983372},{"uid":3318682,"name":"Żwirki i Wigury - Woronicza","num":"9702","city":"Warszawa","lat":52.194579,"lng":20.982139},{"uid":613215114,"name":"recording_334082857","num":"0","city":"Warszawa","lat":52.068289,"lng":20.433431},{"uid":613588848,"name":"recording_334453896","num":"0","city":"Warszawa","lat":52.21184,"lng":21.048067},{"uid":613809046,"name":"Radzymińska - Trocka","num":"0","city":"Warszawa","lat":52.29816,"lng":21.109342},{"uid":614361280,"name":"recording_335105303","num":"0","city":"Warszawa","lat":52.218756,"lng":21.018336},{"uid":614632982,"name":"recording_335309144","num":"0","city":"Warszawa","lat":52.230662,"lng":21.017338}]